<?xml version="1.0" encoding="ISO-8859-1"?>
<kml xmlns="http://earth.google.com/kml/2.0"><Folder><Placemark><name>F120 BBS ES A-1 PK-22.1 San Sebastián de los Reyes (M) A - JOVI</name><Point><coordinates>-3.58733,40.57121,0</coordinates></Point></Placemark><Placemark><name>F120 BBS ES A-1 PK-24 San Sebastián de los Reyes (M) D - JOVI</name><Point><coordinates>-3.58244,40.5931,0</coordinates></Point></Placemark><Placemark><name>F120 BBS ES A-6 PK-7.8 Madrid @ - FerScrich</name><Point><coordinates>-3.7561,40.46033,0</coordinates></Point></Placemark><Placemark><name>F120 BBS ES A-1 PK-390.7 Asparrena (AR) A@ - JOVI</name><Point><coordinates>-2.25256,42.86492,0</coordinates></Point></Placemark><Placemark><name>F120 BBS ES A-1 PK-390.7 Asparrena (AR) D@ - jenito</name><Point><coordinates>-2.2526,42.86513,0</coordinates></Point></Placemark><Placemark><name>F120 BBS ES A-1 PK-401.6 Alsasua (NA) A - jenito</name><Point><coordinates>-2.19166,42.91604,0</coordinates></Point></Placemark><Placemark><name>F120 BBS ES A-12 PK-21.2 Najera (RI) A - JOVI</name><Point><coordinates>-2.68249,42.41858,0</coordinates></Point></Placemark><Placemark><name>F120 BBS ES A-12 PK-38 Hervias (RI) A - Ache</name><Point><coordinates>-2.87926,42.43955,0</coordinates></Point></Placemark><Placemark><name>F120 BBS ES AP-68 PK-86.1 Haro (RI) A - JOVI</name><Point><coordinates>-2.87998,42.56976,0</coordinates></Point></Placemark><Placemark><name>F120 BBS ES A-2 PK-122 Saúca (GU) D - JOVI</name><Point><coordinates>-2.57693,41.00011,0</coordinates></Point></Placemark><Placemark><name>F120 BBS ES A-2 PK-136.5 Alcolea del Pinar (GU) A - davich</name><Point><coordinates>-2.44722,41.05067,0</coordinates></Point></Placemark><Placemark><name>F120 BBS ES A-2 PK-141.4 Esteras de Medinaceli (SO) A - JOVI</name><Point><coordinates>-2.44909,41.09443,0</coordinates></Point></Placemark><Placemark><name>F120 BBS ES A-2 PK-151.9 Medinaceli (SO) D - CUST_DEMAC</name><Point><coordinates>-2.41092,41.1733,0</coordinates></Point></Placemark><Placemark><name>F120 BBS ES A-2 PK-297.8 La Muela (ZG) A - impresora</name><Point><coordinates>-1.11061,41.57577,0</coordinates></Point></Placemark><Placemark><name>F120 BBS ES A-2 PK-308.3 Zaragoza A - neron</name><Point><coordinates>-1.01686,41.62324,0</coordinates></Point></Placemark><Placemark><name>F120 BBS ES A-2 PK-313.7 Garrapinillos (ZG) D - Antonio2004</name><Point><coordinates>-0.96516,41.64748,0</coordinates></Point></Placemark><Placemark><name>F120 BBS ES A-2 PK-510 Tarrega (LL) D - JOVI</name><Point><coordinates>1.1685,41.6574,0</coordinates></Point></Placemark><Placemark><name>F120 BBS ES A-2 PK-522 Cervera (LL) A - JOVI</name><Point><coordinates>1.29735,41.66643,0</coordinates></Point></Placemark><Placemark><name>F120 BBS ES A-2 PK-524 Cervera (LL) D - JOVI</name><Point><coordinates>1.31384,41.65449,0</coordinates></Point></Placemark><Placemark><name>F120 BBS ES A-2 PK-594 Sant Andreu de la Barca (B) D - JOVI</name><Point><coordinates>1.97565,41.45478,0</coordinates></Point></Placemark><Placemark><name>F120 BBS ES A-2 PK-597.5 Pallejà (B) A - caceres222</name><Point><coordinates>1.99764,41.42927,0</coordinates></Point></Placemark><Placemark><name>F120 BBS ES A-2 PK-602.8 Sant Vicenç dels Horts (B) A@ - caceres222</name><Point><coordinates>2.02111,41.38626,0</coordinates></Point></Placemark><Placemark><name>F120 BBS ES C-58 PK-15.7 Sabadell (B) A - Anonimo</name><Point><coordinates>2.06725,41.54311,0</coordinates></Point></Placemark><Placemark><name>F120 BBS ES C-58PK-5.9CerdanyoladelVallès(B)D - CUST_JOSERRA</name><Point><coordinates>2.14991,41.49483,0</coordinates></Point></Placemark><Placemark><name>F120 BBS ES A-3 PK-16.4 Rivas-Vaciamadrid (M) A@ - FerScrich</name><Point><coordinates>-3.54322,40.34593,0</coordinates></Point></Placemark><Placemark><name>F120 BBS ES A-3 PK-20 Rivas-Vaciamadrid (M) D @ - FerScrich</name><Point><coordinates>-3.51579,40.32215,0</coordinates></Point></Placemark><Placemark><name>F120 BBS ES M-45 PK-12.8 Madrid D - JOVI</name><Point><coordinates>-3.65539,40.34329,0</coordinates></Point></Placemark><Placemark><name>F120 BBS ES M-45 PK-14.9 Madrid A - JOVI</name><Point><coordinates>-3.63472,40.35275,0</coordinates></Point></Placemark><Placemark><name>F120 BBS ES M-50 PK-42.8 Getafe (M) D - angel59</name><Point><coordinates>-3.66739,40.29775,0</coordinates></Point></Placemark><Placemark><name>F120 BBS ES A-30 PK-112.9 Ulea (MU) D - JOVI</name><Point><coordinates>-1.31376,38.1762,0</coordinates></Point></Placemark><Placemark><name>F120 BBS ES A-30 PK-122.9 Lorquí (MU) A - JADV</name><Point><coordinates>-1.2395,38.11208,0</coordinates></Point></Placemark><Placemark><name>F120 BBS ES A-7 PK-562.8 Murcia A - JOVI</name><Point><coordinates>-1.11768,38.05401,0</coordinates></Point></Placemark><Placemark><name>F120 BBS ES A-4 PK-40.4 Seseña (TO) D - angel59</name><Point><coordinates>-3.63983,40.07644,0</coordinates></Point></Placemark><Placemark><name>F120 BBS ES A-4 PK-41.4 Seseña (TO) A - angel59</name><Point><coordinates>-3.64481,40.06856,0</coordinates></Point></Placemark><Placemark><name>F120 BBS ES A-4 PK-67.6 Ocaña (TO) A - angel59</name><Point><coordinates>-3.4757,39.91002,0</coordinates></Point></Placemark><Placemark><name>F120 BBS ES A-42PK-27.4TorrejóndelaCalzada(M)D@ - colegatronco</name><Point><coordinates>-3.79619,40.19389,0</coordinates></Point></Placemark><Placemark><name>F120 BBS ES A-42 PK-44.6 Yuncler (TO) D - JOVI</name><Point><coordinates>-3.8969,40.06601,0</coordinates></Point></Placemark><Placemark><name>F120 BBS ES A-42 PK-55.65 Cabañas de la Sagra (TO) A@ - Dremec</name><Point><coordinates>-3.9646,39.98646,0</coordinates></Point></Placemark><Placemark><name>F120 BBS ES A-42 PK-55.65 Cabañas de la Sagra (TO) D@ - Ache</name><Point><coordinates>-3.96427,39.98651,0</coordinates></Point></Placemark><Placemark><name>F120 BBS ES A-5 PK-23 Móstoles Madrid - ditirambo A @</name><Point><coordinates>-3.91411,40.3038,0</coordinates></Point></Placemark><Placemark><name>F120 BBS ES A-6 PK-16.7 Las Rozas (M) A@ - JOVI</name><Point><coordinates>-3.85601,40.48247,0</coordinates></Point></Placemark><Placemark><name>F120 BBS ES M-50 PK-54.1 Leganes (M) A - JOVI</name><Point><coordinates>-3.77009,40.30003,0</coordinates></Point></Placemark><Placemark><name>F120 BBS ES A-52 PK-14.8 Quintanilla de Urz (ZA) D - JOVI</name><Point><coordinates>-5.84522,42.02297,0</coordinates></Point></Placemark><Placemark><name>F120 BBS ES A-6 PK-262.4 Benavente (ZA) A - fml9217</name><Point><coordinates>-5.66077,42.00599,0</coordinates></Point></Placemark><Placemark><name>F120 BBS ES A-6 PK-270.6 Villabrázaro (ZA) D - CUST</name><Point><coordinates>-5.69708,42.07348,0</coordinates></Point></Placemark><Placemark><name>F120 BBS ES A-6 PK-171.1 Rueda (VA) - JOVI</name><Point><coordinates>-4.96401,41.41089,0</coordinates></Point></Placemark><Placemark><name>F120 BBS ES A-62 PK-132.5 Arroyo de la Encomienda (VA) D - JOVI</name><Point><coordinates>-4.80852,41.60579,0</coordinates></Point></Placemark><Placemark><name>F120 BBS ES A-62 PK-156 Tordesillas (VA) A - JOVI</name><Point><coordinates>-5.0221,41.49705,0</coordinates></Point></Placemark><Placemark><name>F120 BBS ES A-6 PK-326.2 Astorga (LE) D - guaje47</name><Point><coordinates>-6.07777,42.44672,0</coordinates></Point></Placemark><Placemark><name>F120 BBS ES A-6 PK-343 Brazuelo (LE) D - guaje47</name><Point><coordinates>-6.17882,42.55142,0</coordinates></Point></Placemark><Placemark><name>F120 BBS ES A-6 PK-347.9 Villagatón (LE) A - guaje47</name><Point><coordinates>-6.21521,42.57968,0</coordinates></Point></Placemark><Placemark><name>F120 BBS ES A-6 PK-426.7 Vega de Valcarce (LE) D - guaje47</name><Point><coordinates>-6.98907,42.68737,0</coordinates></Point></Placemark><Placemark><name>F120 BBS ES A-6 PK-435.1 As Nogais (LU) A - jose-m-m</name><Point><coordinates>-7.0522,42.74376,0</coordinates></Point></Placemark><Placemark><name>F120 BBS ES A-6 PK-452.3 Navia de Suarna (LU) D - jose-m-m</name><Point><coordinates>-7.15106,42.86267,0</coordinates></Point></Placemark><Placemark><name>F120 BBS ES A-6 PK-519.6 Begonte (LU) A - CUST</name><Point><coordinates>-7.71356,43.17473,0</coordinates></Point></Placemark><Placemark><name>F120 BBS ES A-6 PK-529.6 Guitiriz (LU) D@ - jose-m-m</name><Point><coordinates>-7.8287,43.18506,0</coordinates></Point></Placemark><Placemark><name>F120 BBS ES A-8 PK-579.2 Vilalba (LU) A - caceres222</name><Point><coordinates>-7.69785,43.29525,0</coordinates></Point></Placemark><Placemark><name>F120 BBS ES A-8 PK-580.8 Vilalba (LU) D - caceres222</name><Point><coordinates>-7.69919,43.28108,0</coordinates></Point></Placemark><Placemark><name>F120 BBS ES A-62 PK-207.1 Parada de Rubiales(SA) D - jenito</name><Point><coordinates>-5.41661,41.16442,0</coordinates></Point></Placemark><Placemark><name>F120 BBS ES A-62 PK-233.4 Castellanos (SA) A - JOVI</name><Point><coordinates>-5.612,41.00294,0</coordinates></Point></Placemark><Placemark><name>F120 BBS ES A-62 PK-233.6 Castellanos (SA) D - JOVI</name><Point><coordinates>-5.61468,41.00184,0</coordinates></Point></Placemark><Placemark><name>F120 BBS ES A-66 PK-13.4 Gijón (AS) D - guaje47</name><Point><coordinates>-5.78966,43.48549,0</coordinates></Point></Placemark><Placemark><name>F120 BBS ES A-66 PK-14.3 Gijón (AS) A - guaje47</name><Point><coordinates>-5.79032,43.47776,0</coordinates></Point></Placemark><Placemark><name>F120 BBS ES A-66 PK-21.4 Llanera (AS) A - fml9217</name><Point><coordinates>-5.80132,43.41665,0</coordinates></Point></Placemark><Placemark><name>F120 BBS ES A-66 PK-24.4 Siero (AS) A - guaje47</name><Point><coordinates>-5.80472,43.39223,0</coordinates></Point></Placemark><Placemark><name>F120 BBS ES A-66 PK-29.1 Oviedo (AS) D - JOVI</name><Point><coordinates>-5.82838,43.3555,0</coordinates></Point></Placemark><Placemark><name>F120 BBS ES A-8 PK-385.3 Gijón (AS) D - CUST</name><Point><coordinates>-5.71938,43.51828,0</coordinates></Point></Placemark><Placemark><name>F120 BBS ES A-8 PK-386.1 Gijón - guaje47</name><Point><coordinates>-5.72977,43.51534,0</coordinates></Point></Placemark><Placemark><name>F120 BBS ES A-8 PK-396.1 Carreño (AS) A - guaje47</name><Point><coordinates>-5.82533,43.52594,0</coordinates></Point></Placemark><Placemark><name>F120 BBS ES A-8 PK-396.5 Carreño (AS) D - JOVI</name><Point><coordinates>-5.82883,43.5287,0</coordinates></Point></Placemark><Placemark><name>F120 BBS ES A-66 PK-146.6 Adanero (LE) A@ - CUST</name><Point><coordinates>-5.62166,42.54821,0</coordinates></Point></Placemark><Placemark><name>F120 BBS ES A-66 PK-146.7 Adanero (LE) D@ - guaje47</name><Point><coordinates>-5.62082,42.5479,0</coordinates></Point></Placemark><Placemark><name>F120 BBS ES A-66 PK-160.6 Ardón (LE) D - guaje47</name><Point><coordinates>-5.58589,42.43352,0</coordinates></Point></Placemark><Placemark><name>F120 BBS ES AP-66 PK-140.7 Valverde de la Virgen (LE) A - guaje47</name><Point><coordinates>-5.67352,42.58133,0</coordinates></Point></Placemark><Placemark><name>F120 BBS ES A-7 PK-326.4 Paterna (V) A - jenito</name><Point><coordinates>-0.47041,39.52508,0</coordinates></Point></Placemark><Placemark><name>F120 BBS ES CV-35 PK-7.6 Paterna(V) A@ - JADV</name><Point><coordinates>-0.44391,39.52997,0</coordinates></Point></Placemark><Placemark><name>F120 BBS ES CV-35 PK-12.9 San Antonio de Benagéber (V) D - CUST</name><Point><coordinates>-0.49247,39.55773,0</coordinates></Point></Placemark><Placemark><name>F120 BBS ES V-21 PK-5.8 Puig (V) D - Ache</name><Point><coordinates>-0.29434,39.5805,0</coordinates></Point></Placemark><Placemark><name>F120 BBS ES A-7 PK-437.8 Enix (AL) - javivi1</name><Point><coordinates>-2.51118,36.83038,0</coordinates></Point></Placemark><Placemark><name>F120 BBS ES A-7 PK-450.9 Viator (AL) A - jenito</name><Point><coordinates>-2.42323,36.89276,0</coordinates></Point></Placemark><Placemark><name>F120 BBS ES A-92 PK-391.9 Viator (AL) A - guaje47</name><Point><coordinates>-2.41679,36.89712,0</coordinates></Point></Placemark><Placemark><name>F120 BBS ES A-7 PK-487.7 Alicante D - JOVI</name><Point><coordinates>-0.57581,38.45943,0</coordinates></Point></Placemark><Placemark><name>F120 BBS ES A-7 PK-522 Elche (A) A - CUST</name><Point><coordinates>-0.75587,38.26084,0</coordinates></Point></Placemark><Placemark><name>F120 BBS ES A-70 PK-18.5 Alicante D@ - JOVI</name><Point><coordinates>-0.55244,38.33395,0</coordinates></Point></Placemark><Placemark><name>F120 BBS ES A-70 PK-23.4 Elche (A) D - CUST</name><Point><coordinates>-0.58845,38.30613,0</coordinates></Point></Placemark><Placemark><name>F120 BBS ES AG-11 PK-10.9 Rianxo (C) A - jose-m-m</name><Point><coordinates>-8.74429,42.68406,0</coordinates></Point></Placemark><Placemark><name>F120 BBS ES AG-11 PK-20 Boiro (C) D - Dremec</name><Point><coordinates>-8.84227,42.67523,0</coordinates></Point></Placemark><Placemark><name>F120 BBS ES AG-11 PK-26.6 Boiro (C) D - CUST</name><Point><coordinates>-8.90196,42.65146,0</coordinates></Point></Placemark><Placemark><name>F120 BBS ES AG-11 PK-5.1 Dodro (C) A - CUST</name><Point><coordinates>-8.71561,42.72797,0</coordinates></Point></Placemark><Placemark><name>F120 BBS ES AG-41 PK-4.5 Meis (PO) A - JADV</name><Point><coordinates>-8.71291,42.50861,0</coordinates></Point></Placemark><Placemark><name>F120 BBS ES AP-9 PK-83.5 Teo (C) A - JADV</name><Point><coordinates>-8.61367,42.8066,0</coordinates></Point></Placemark><Placemark><name>F120 BBS ES AP-68 PK-29.7 Zuia (AR) A - Ribes</name><Point><coordinates>-2.9024,43.0106,0</coordinates></Point></Placemark><Placemark><name>F120 BBS ES AP-68 PK-33 Zuia (AR) D - JOVI</name><Point><coordinates>-2.87255,42.99007,0</coordinates></Point></Placemark><Placemark><name>F120 BBS ES AP-68 PK-50.1 Kuartango (AR) A - Matrix</name><Point><coordinates>-2.89356,42.85198,0</coordinates></Point></Placemark><Placemark><name>F120 BBS ES AP-68 PK-7.5 Ugao (BI) D - JOVI</name><Point><coordinates>-2.89943,43.17927,0</coordinates></Point></Placemark><Placemark><name>F120 BBS ES N-622 PK-15.4 Zigoitia (AR) D - jenito</name><Point><coordinates>-2.77606,42.9428,0</coordinates></Point></Placemark><Placemark><name>F120 BBS ES AP-7 PK-337 Ulldecona (T) A@ - JOVI</name><Point><coordinates>0.49105,40.62723,0</coordinates></Point></Placemark><Placemark><name>F120 BBS ES AP-7 PK-337.1 Ulldecona (T) D@ - JOVI</name><Point><coordinates>0.49101,40.62688,0</coordinates></Point></Placemark><Placemark><name>F120 BBS ES AP-7 PK-356.7 Benicarló (CS) A - JOVI</name><Point><coordinates>0.41672,40.46977,0</coordinates></Point></Placemark><Placemark><name>F120 BBS ES AP-8 PK-29.3 Usurbil (G) D - Ache</name><Point><coordinates>-2.05826,43.29495,0</coordinates></Point></Placemark><Placemark><name>F120 BBS ES AP-8 PK-46 Zumaya (G) A - Ache</name><Point><coordinates>-2.24809,43.27777,0</coordinates></Point></Placemark><Placemark><name>F120 BBS ES GI-20 PK-4 Pasaia (G) A@ - caceres222</name><Point><coordinates>-1.93398,43.31054,0</coordinates></Point></Placemark><Placemark><name>F120 BBS ES GI-20 PK-4.3 Pasaia (G) D@ - caceres222</name><Point><coordinates>-1.93747,43.31065,0</coordinates></Point></Placemark><Placemark><name>F120 BBS ES AP-8 PK-57.3 Deba (G) A - Caceres222</name><Point><coordinates>-2.35736,43.28434,0</coordinates></Point></Placemark><Placemark><name>F120 BBS ES AP-8 PK-61.1 Mendaro (G) A - caceres222</name><Point><coordinates>-2.38612,43.25725,0</coordinates></Point></Placemark><Placemark><name>F120 BBS ES AP-8 PK-62.5 Mendaro (G) D - Caceres222</name><Point><coordinates>-2.39413,43.2475,0</coordinates></Point></Placemark><Placemark><name>F120 BBS ES AP-8 PK-64 Elgoibar (G) D - Caceres222</name><Point><coordinates>-2.40215,43.23617,0</coordinates></Point></Placemark><Placemark><name>F120 BBS ES C-16 PK-51.1 Manresa (B) A@ - Ache</name><Point><coordinates>1.86516,41.72605,0</coordinates></Point></Placemark><Placemark><name>F120 BBS ES C-16 PK-51.2 Manresa (B) D@ - impresora</name><Point><coordinates>1.86513,41.7269,0</coordinates></Point></Placemark><Placemark><name>F120 BBS ES C-16 PK-63.3 Sallent (B) A - caceres222</name><Point><coordinates>1.88967,41.82321,0</coordinates></Point></Placemark><Placemark><name>F120 BBS ES C-16 PK-68.3 Balsareny (B) D - caceres222</name><Point><coordinates>1.87054,41.86161,0</coordinates></Point></Placemark><Placemark><name>F120 BBS ES C-25 PK-128.7 Rajadell (GI) A - caceres222</name><Point><coordinates>1.76883,41.734,0</coordinates></Point></Placemark><Placemark><name>F120 BBS ES C-25 PK-143.4 Santpedor (B) D - Ache</name><Point><coordinates>1.91013,41.78663,0</coordinates></Point></Placemark><Placemark><name>F120 BBS ES C-16 PK-78 Puigreig (B) A - Ribes</name><Point><coordinates>1.87738,41.93976,0</coordinates></Point></Placemark><Placemark><name>F120 BBS ES C-16 PK-94.2 Berga (B) D - caceres222</name><Point><coordinates>1.86833,42.07812,0</coordinates></Point></Placemark><Placemark><name>F120 BBS ES C-25 PK-162.76 Santa Maria d´Oló (B) A - Ache</name><Point><coordinates>2.07235,41.89422,0</coordinates></Point></Placemark><Placemark><name>F120 BBS ES C-31 PK-215.2 Badalona (B) A - caceres222</name><Point><coordinates>2.26432,41.46179,0</coordinates></Point></Placemark><Placemark><name>F120 BBS ES C-32 nord PK-85 Alella (B) D - JOVI</name><Point><coordinates>2.29476,41.48321,0</coordinates></Point></Placemark><Placemark><name>F120 BBS ES C-33 PK-80.1 Montcada (B) A - JOVI</name><Point><coordinates>2.18349,41.47609,0</coordinates></Point></Placemark><Placemark><name>F120 BBS ES C-60 KM 3.4 Argentona (B) D@ - JOVI</name><Point><coordinates>2.39594,41.56794,0</coordinates></Point></Placemark><Placemark><name>F120 BBS ES C-60 PK-3.3 Argentona (B) A@ - JOVI</name><Point><coordinates>2.39636,41.56762,0</coordinates></Point></Placemark><Placemark><name>F120 BBS ES MA-13 PK-16.1 Consell (IB) A - JOVI</name><Point><coordinates>2.81649,39.66467,0</coordinates></Point></Placemark><Placemark><name>F120 BBS ES MA-13 PK-9 Marrachí (IB) D - JOVI</name><Point><coordinates>2.74798,39.63388,0</coordinates></Point></Placemark><Placemark><name>F120 BBS ES MA-19 PK-8.9 Palma de Mallorca (IB) A - JOVI</name><Point><coordinates>2.72859,39.53678,0</coordinates></Point></Placemark><Placemark><name>F120 BBS ES A-1 PK-125.5 Fresno de la Fuente (SG) D - JOVI</name><Point><coordinates>-3.65115,41.40272,0</coordinates></Point></Placemark><Placemark><name>F120 BBS ES A-1 PK-138.1 Honrubia de la Cuesta (SG) A - JOVI</name><Point><coordinates>-3.70974,41.50251,0</coordinates></Point></Placemark><Placemark><name>F120 BBS ES A-1 PK-194.3 Lerma (BU) A - JOVI</name><Point><coordinates>-3.7767,41.96701,0</coordinates></Point></Placemark><Placemark><name>F120 BBS ES A-1 PK-237.6 Burgos D - JOVI</name><Point><coordinates>-3.68287,42.32582,0</coordinates></Point></Placemark><Placemark><name>F120 BBS ES A-1 PK-84 Horcajo de la Sierra-Aoslos (M) D - caceres222</name><Point><coordinates>-3.60758,41.06681,0</coordinates></Point></Placemark><Placemark><name>F120 BBS ES A-2 PK-202.3 Cetina (ZG) A - neron</name><Point><coordinates>-1.94486,41.30331,0</coordinates></Point></Placemark><Placemark><name>F120 BBS ES A-2 PK-232.2 Calatayud (ZG) A - jose-m-m</name><Point><coordinates>-1.65313,41.33216,0</coordinates></Point></Placemark><Placemark><name>F120 BBS ES A-2 PK-272.9 La Almunia de Doña Godina (ZG) D - jose-m-m</name><Point><coordinates>-1.36325,41.48975,0</coordinates></Point></Placemark><Placemark><name>F120 BBS ES A-2 PK-445.4 Soses (LL) A - JADV</name><Point><coordinates>0.45765,41.53828,0</coordinates></Point></Placemark><Placemark><name>F120 BBS ES A-2 PK-477.4 Bell-lloc d´Urgell (LL) D - JOVI</name><Point><coordinates>0.79046,41.63667,0</coordinates></Point></Placemark><Placemark><name>F120 BBS ES A-2 PK-50 Guadalajara A - kamal</name><Point><coordinates>-3.20744,40.61287,0</coordinates></Point></Placemark><Placemark><name>F120 BBS ES A-2 PK-534.2 Montmaneu (B) D - caceres222</name><Point><coordinates>1.41797,41.6233,0</coordinates></Point></Placemark><Placemark><name>F120 BBS ES A-2 PK-707.5 Aiguaviva (GI) A - impresora</name><Point><coordinates>2.79013,41.91029,0</coordinates></Point></Placemark><Placemark><name>F120 BBS ES A-23 PK-165.4 Monreal del Campo (TE) A - JOVI</name><Point><coordinates>-1.33238,40.74678,0</coordinates></Point></Placemark><Placemark><name>F120 BBS ES A-23 PK-19.8 Sot de Ferrer (CS) A - JOVI</name><Point><coordinates>-0.39994,39.7919,0</coordinates></Point></Placemark><Placemark><name>F120 BBS ES A-23 PK-355.3 Huesca A - Antonio2004</name><Point><coordinates>-0.44938,42.11147,0</coordinates></Point></Placemark><Placemark><name>F120 BBS ES A-23 PK-88.6 La Puebla de Valverde (TE) D - JOVI</name><Point><coordinates>-0.91049,40.19317,0</coordinates></Point></Placemark><Placemark><name>F120 BBS ES A-231 PK-83.6 Carrión de los Condes (P) A - JOVI</name><Point><coordinates>-4.63875,42.34992,0</coordinates></Point></Placemark><Placemark><name>F120 BBS ES A-3 PK-156.6 Castillo de Garcimuñoz (CU) A - JOVI</name><Point><coordinates>-2.37493,39.66718,0</coordinates></Point></Placemark><Placemark><name>F120 BBS ES A-3 PK-48.5 Villarejo de Salvanes (M) D - JOVI</name><Point><coordinates>-3.29246,40.17208,0</coordinates></Point></Placemark><Placemark><name>F120 BBS ES A-3 PK-78.4 Tarancón (CU) D - Paladiun</name><Point><coordinates>-3.03454,40.02289,0</coordinates></Point></Placemark><Placemark><name>F120 BBS ES A-30 PK-179.4 Cartagena (MU) A - JOVI</name><Point><coordinates>-1.01997,37.69459,0</coordinates></Point></Placemark><Placemark><name>F120 BBS ES A-30 PK-49.2 Hellin (AB) A - JOVI</name><Point><coordinates>-1.67327,38.59556,0</coordinates></Point></Placemark><Placemark><name>F120 BBS ES A-31 PK-11.6 Sisante (CU) A - JOVI</name><Point><coordinates>-2.20902,39.42212,0</coordinates></Point></Placemark><Placemark><name>F120 BBS ES A-31 PK-127.1 Bonete (AB) A - JOVI</name><Point><coordinates>-1.32412,38.87726,0</coordinates></Point></Placemark><Placemark><name>F120 BBS ES A-31 PK-137.9 Almansa (AB) D - JOVI</name><Point><coordinates>-1.20388,38.87982,0</coordinates></Point></Placemark><Placemark><name>F120 BBS ES A-31 PK-171.8 Villena (A) A - JOVI</name><Point><coordinates>-0.93432,38.72246,0</coordinates></Point></Placemark><Placemark><name>F120 BBS ES A-31 PK-50.6 Montalvos (AB) A - JOVI</name><Point><coordinates>-2.04996,39.14401,0</coordinates></Point></Placemark><Placemark><name>F120 BBS ES A-35 PK-43.3 Canals (V) A - CUST</name><Point><coordinates>-0.59623,38.98449,0</coordinates></Point></Placemark><Placemark><name>F120 BBS ES A-4 PK-177.5 Manzanares (CR) D - Ribes</name><Point><coordinates>-3.38272,38.96893,0</coordinates></Point></Placemark><Placemark><name>F120 BBS ES A-4 PK-230.8 Almuradiel (CR) A@ - Ribes</name><Point><coordinates>-3.49099,38.51901,0</coordinates></Point></Placemark><Placemark><name>F120 BBS ES A-4 PK-230.8 Almuradiel (CR) D@ - guaje47</name><Point><coordinates>-3.49077,38.51896,0</coordinates></Point></Placemark><Placemark><name>F120 BBS ES A-4 PK-484.2 La Campana (SE) D - Ache</name><Point><coordinates>-5.40311,37.50959,0</coordinates></Point></Placemark><Placemark><name>F120 BBS ES A-4 PK-495.7 Carmona (SE) A - colmena</name><Point><coordinates>-5.52458,37.48418,0</coordinates></Point></Placemark><Placemark><name>F120 BBS ES A-4 PK-529.6 La Rinconada (SE) A - CUST_JRLG</name><Point><coordinates>-5.87405,37.43259,0</coordinates></Point></Placemark><Placemark><name>F120 BBS ES A-4 PK-95.7 Tembleque (TO) D - JOVI</name><Point><coordinates>-3.51061,39.66919,0</coordinates></Point></Placemark><Placemark><name>F120 BBS ES A-40 PK-299.5 Cuenca A - JOVI</name><Point><coordinates>-2.26426,40.07384,0</coordinates></Point></Placemark><Placemark><name>F120 BBS ES A-44 PK-39 Jaen A - CUST_MICHAEKNIGHT</name><Point><coordinates>-3.75801,37.79838,0</coordinates></Point></Placemark><Placemark><name>F120 BBS ES A-44 PK-42.6 La Guardia de Jaén (J) D - Orni</name><Point><coordinates>-3.73906,37.7724,0</coordinates></Point></Placemark><Placemark><name>F120 BBS ES A-45 PK-52.3 Lucena (CO) D - Dremec</name><Point><coordinates>-4.54488,37.43357,0</coordinates></Point></Placemark><Placemark><name>F120 BBS ES A-49 PK-46.3 La Palma del Cond (H) A - Ache</name><Point><coordinates>-6.52548,37.36,0</coordinates></Point></Placemark><Placemark><name>F120 BBS ES A-49 PK-50.8 Bollullos Par del Cond (H) D - Ache</name><Point><coordinates>-6.57526,37.35241,0</coordinates></Point></Placemark><Placemark><name>F120 BBS ES A-5 PK-139.5 Calera y Chozas (TO) A - JOVI</name><Point><coordinates>-5.08223,39.91971,0</coordinates></Point></Placemark><Placemark><name>F120 BBS ES A-5 PK-179.1 Navalmoral de la Mata (CC) D - CUST</name><Point><coordinates>-5.52417,39.88707,0</coordinates></Point></Placemark><Placemark><name>F120 BBS ES A-5 PK-183.8 Millanes (CC) A - JOVI</name><Point><coordinates>-5.57129,39.87215,0</coordinates></Point></Placemark><Placemark><name>F120 BBS ES A-5 PK-332.7 Trujillanos (BA) A - JOVI</name><Point><coordinates>-6.26718,38.94789,0</coordinates></Point></Placemark><Placemark><name>F120 BBS ES A-5 PK-366.8 Lobon (BA) D - JOVI</name><Point><coordinates>-6.61693,38.84756,0</coordinates></Point></Placemark><Placemark><name>F120 BBS ES A-5 PK-379 Talavera la Real (BA) A - Dremec</name><Point><coordinates>-6.74814,38.86027,0</coordinates></Point></Placemark><Placemark><name>F120 BBS ES A-5 PK-57.9 Santa Cruz del Retamar (TO) A - JOVI</name><Point><coordinates>-4.22466,40.12538,0</coordinates></Point></Placemark><Placemark><name>F120 BBS ES A-52 PK-110.6 Lubián (ZA) D - jose-m-m</name><Point><coordinates>-6.95676,42.03931,0</coordinates></Point></Placemark><Placemark><name>F120 BBS ES A-52 PK-123.8 A Gudiña (ZA) A - Dremec</name><Point><coordinates>-7.10276,42.05527,0</coordinates></Point></Placemark><Placemark><name>F120 BBS ES A-52 PK-162.3 Verín (OU) D - Dremec</name><Point><coordinates>-7.45702,41.91999,0</coordinates></Point></Placemark><Placemark><name>F120 BBS ES A-52 PK-170 Monterrei (OU) D - sencillo</name><Point><coordinates>-7.51542,41.96079,0</coordinates></Point></Placemark><Placemark><name>F120 BBS ES A-52 PK-193.9 Xinzo de Limia (OU) D - CUST</name><Point><coordinates>-7.72046,42.08781,0</coordinates></Point></Placemark><Placemark><name>F120 BBS ES A-52 PK-222 San Cibrao das Viñas (OU) A - Dremec</name><Point><coordinates>-7.87511,42.28743,0</coordinates></Point></Placemark><Placemark><name>F120 BBS ES A-52 PK-251 Ribadavia (OU) A - JADV</name><Point><coordinates>-8.1079,42.30822,0</coordinates></Point></Placemark><Placemark><name>F120 BBS ES A-52 PK-254.1 Ribadavia (OU) D - JADV</name><Point><coordinates>-8.14274,42.30268,0</coordinates></Point></Placemark><Placemark><name>F120 BBS ES A-52 PK-58.5 Mombuey (ZA) D - Dremec</name><Point><coordinates>-6.35777,42.02098,0</coordinates></Point></Placemark><Placemark><name>F120 BBS ES A-55 PK-15.9 O Porriño (PO) A - CUST</name><Point><coordinates>-8.62578,42.1578,0</coordinates></Point></Placemark><Placemark><name>F120 BBS ES A-6 PK-245.9 Cerecinos de Campos (ZA) D - fml9217</name><Point><coordinates>-5.50743,41.91284,0</coordinates></Point></Placemark><Placemark><name>F120 BBS ES A-6 PK-380.7 Congosto (LE) D - guaje47</name><Point><coordinates>-6.53222,42.57645,0</coordinates></Point></Placemark><Placemark><name>F120 BBS ES A-6 PK-397.6 Carracedelo (LE) A - guaje47</name><Point><coordinates>-6.7115,42.57539,0</coordinates></Point></Placemark><Placemark><name>F120 BBS ES A-6 PK-470.1 Baralla (LU) A - CUST</name><Point><coordinates>-7.30398,42.90827,0</coordinates></Point></Placemark><Placemark><name>F120 BBS ES A-6 PK-541.3 Aranga (C) D - CUST</name><Point><coordinates>-7.96886,43.19236,0</coordinates></Point></Placemark><Placemark><name>F120 BBS ES A-6 PK-561.2 Coirós (C) A - Dremec</name><Point><coordinates>-8.17145,43.24335,0</coordinates></Point></Placemark><Placemark><name>F120 BBS ES A-62 PK-116.4 Fuensaldaña (P) A - fml9217</name><Point><coordinates>-4.69774,41.71657,0</coordinates></Point></Placemark><Placemark><name>F120 BBS ES A-62 PK-57.3 Herrera de Valdecañas (P) D - JOVI</name><Point><coordinates>-4.21749,42.07106,0</coordinates></Point></Placemark><Placemark><name>F120 BBS ES A-62 PK-77.2 Magaz de Pisuerga (P) A - JOVI</name><Point><coordinates>-4.42375,41.98815,0</coordinates></Point></Placemark><Placemark><name>F120 BBS ES A-62 PK-96.9 Dueñas (P) D - caceres222</name><Point><coordinates>-4.55672,41.85154,0</coordinates></Point></Placemark><Placemark><name>F120 BBS ES A-66 PK-508.1 Cañaveral (CC) A - Dremec</name><Point><coordinates>-6.36802,39.79787,0</coordinates></Point></Placemark><Placemark><name>F120 BBS ES A-66 PK-657.5 Villafranca de los Barros (BA) A - Dremec</name><Point><coordinates>-6.36896,38.62697,0</coordinates></Point></Placemark><Placemark><name>F120 BBS ES A-66 PK-685.9 Puebla de Sancho Pérez (BA) D - JOVI</name><Point><coordinates>-6.33807,38.38252,0</coordinates></Point></Placemark><Placemark><name>F120 BBS ES A-66 PK-795.6 Gerena (SE) A - antoniano12</name><Point><coordinates>-6.08215,37.52581,0</coordinates></Point></Placemark><Placemark><name>F120 BBS ES A-67 PK-195.4 Pielagos (CB) D - JOVI</name><Point><coordinates>-3.93324,43.42668,0</coordinates></Point></Placemark><Placemark><name>F120 BBS ES A-67 PK-7.2 Palencia D - Dremec</name><Point><coordinates>-4.50307,41.99243,0</coordinates></Point></Placemark><Placemark><name>F120 BBS ES A-7 PK-175.8 Marbella (MA) A - JOVI</name><Point><coordinates>-4.94711,36.50132,0</coordinates></Point></Placemark><Placemark><name>F120 BBS ES A-7 PK-404.5 El Ejido (AL) A - jenito</name><Point><coordinates>-2.84726,36.76691,0</coordinates></Point></Placemark><Placemark><name>F120 BBS ES A-7 PK-468.8 Almeria D - jenito</name><Point><coordinates>-2.25515,36.86257,0</coordinates></Point></Placemark><Placemark><name>F120 BBS ES A-8 PK-172.9 Colindres (CB) A - JOVI</name><Point><coordinates>-3.4433,43.39458,0</coordinates></Point></Placemark><Placemark><name>F120 BBS ES A-8 PK-528.1 Barreiros (LU) A - sencillo</name><Point><coordinates>-7.27253,43.50449,0</coordinates></Point></Placemark><Placemark><name>F120 BBS ES A-8 PK-555.3 Abadín (LU) D - caceres222</name><Point><coordinates>-7.45506,43.36151,0</coordinates></Point></Placemark><Placemark><name>F120 BBS ES A-92 PK-241.7Albolote (GR) D - JOVI</name><Point><coordinates>-3.64527,37.24418,0</coordinates></Point></Placemark><Placemark><name>F120 BBS ES A-92 PK-29.2 Carmona (SE) D - jenito</name><Point><coordinates>-5.66337,37.27392,0</coordinates></Point></Placemark><Placemark><name>F120 BBS ES A-92N PK-9.3 Guadix (GR) A - Ribes</name><Point><coordinates>-3.05611,37.3803,0</coordinates></Point></Placemark><Placemark><name>F120 BBS ES AG-41 PK-16.9 Sanxenxo (PO) A - Pesado</name><Point><coordinates>-8.80295,42.43612,0</coordinates></Point></Placemark><Placemark><name>F120 BBS ES AP-2 PK-164.9 Borjas Blancas (LL) A - JOVI</name><Point><coordinates>0.87574,41.4798,0</coordinates></Point></Placemark><Placemark><name>F120 BBS ES AP-2 PK-173.9 L´Albi (LL) D - impresora</name><Point><coordinates>0.94607,41.42557,0</coordinates></Point></Placemark><Placemark><name>F120 BBS ES AP-6 PK-107 Adanero (AV) A - JOVI</name><Point><coordinates>-4.58565,40.94243,0</coordinates></Point></Placemark><Placemark><name>F120 BBS ES AP-6 PK-108.6 Adanero (AV) D - JOVI</name><Point><coordinates>-4.6005,40.94899,0</coordinates></Point></Placemark><Placemark><name>F120 BBS ES AP-6 PK-69.9 Navas de San Antonio (SG) D - Dremec</name><Point><coordinates>-4.29665,40.74402,0</coordinates></Point></Placemark><Placemark><name>F120 BBS ES AP-68 PK-174.2 Calahorra (RI) A - JOVI</name><Point><coordinates>-1.98488,42.31167,0</coordinates></Point></Placemark><Placemark><name>F120 BBS ES AP-68 PK-175.9 Calahorra (RI) D - JOVI</name><Point><coordinates>-1.97588,42.29827,0</coordinates></Point></Placemark><Placemark><name>F120 BBS ES AP-68 PK-218.1 Murchante (Na) A - caceres222</name><Point><coordinates>-1.646,42.03742,0</coordinates></Point></Placemark><Placemark><name>F120 BBS ES AP-7 PK-294.5 LAmetlla de Mar (T) D - JOVI</name><Point><coordinates>0.81703,40.90486,0</coordinates></Point></Placemark><Placemark><name>F120 BBS ES AP-7 PK-308.6 LAmpolla (T) A - JOVI</name><Point><coordinates>0.70412,40.813,0</coordinates></Point></Placemark><Placemark><name>F120 BBS ES AP-7 PK-374.7 Santa Magdalena (CS) D - JOVI</name><Point><coordinates>0.29335,40.34868,0</coordinates></Point></Placemark><Placemark><name>F120 BBS ES AP-7 PK-390.7 Torreblanca (CS) A - JOVI</name><Point><coordinates>0.21274,40.23386,0</coordinates></Point></Placemark><Placemark><name>F120 BBS ES AP-7 PK-438.3 Villareal (CS) A - JOVI</name><Point><coordinates>-0.12946,39.95162,0</coordinates></Point></Placemark><Placemark><name>F120 BBS ES AP-9 PK-131.4 Pontevedra D - jose-m-m</name><Point><coordinates>-8.65085,42.42298,0</coordinates></Point></Placemark><Placemark><name>F120 BBS ES C-14 PK-13.9 La Selva del Camp (T) D - JOVI</name><Point><coordinates>1.14642,41.20483,0</coordinates></Point></Placemark><Placemark><name>F120 BBS ES C-14 PK-20 Alcover (T) A - impresora</name><Point><coordinates>1.17507,41.25607,0</coordinates></Point></Placemark><Placemark><name>F120 BBS ES C-25 PK-111.6 Sant Pere Sallavinera (B) D - guaje47</name><Point><coordinates>1.57963,41.74546,0</coordinates></Point></Placemark><Placemark><name>F120 BBS ES C-25 PK-189.4 Calldetenes (B) A - Ache</name><Point><coordinates>2.31161,41.91098,0</coordinates></Point></Placemark><Placemark><name>F120 BBS ES C-25 PK-230.1 Vilobí d´Onyar (GI) A - JOVI</name><Point><coordinates>2.71021,41.87991,0</coordinates></Point></Placemark><Placemark><name>F120 BBS ES C-32 PK-9.2 Calafell (T) A - Ache</name><Point><coordinates>1.60562,41.21061,0</coordinates></Point></Placemark><Placemark><name>F120 BBS ES CM-42 PK-39.8 Turleque (TO) d - JOVI</name><Point><coordinates>-3.69605,39.58025,0</coordinates></Point></Placemark><Placemark><name>F120 BBS ES CV-10 PK-26.9 Borriol (CS) D - JOVI</name><Point><coordinates>-0.03481,40.06611,0</coordinates></Point></Placemark><Placemark><name>F120 BBS ES H-31 PK-79.9 Huelva A - guaje47</name><Point><coordinates>-6.89285,37.30821,0</coordinates></Point></Placemark><Placemark><name>F120 BBS ES TF-1 PK-59.3 Granadilla de Abona (TF) A - JOVI</name><Point><coordinates>-16.58316,28.05792,0</coordinates></Point></Placemark><Placemark><name>F120 BBS ES TF-5 PK-15 San Cristóbal de La Laguna (TF) D - JOVI</name><Point><coordinates>-16.37455,28.49106,0</coordinates></Point></Placemark><Placemark><name>F120 BBS ES Z-40 PK-15.7 Zaragoza D - Antonio2004</name><Point><coordinates>-0.84098,41.65686,0</coordinates></Point></Placemark></Folder></kml>
